{"stations": [{"state": "CA", "elevation": "30", "name": "SAN DIEGO", "lat": "32.73333", "lng": "-117.16667", "types": ["WBAN"], "types_id": ["23144"]}, {"state": "CA", "elevation": "722", "name": "REDDING BENTON FLD", "lat": "40.58333", "lng": "-122.40000", "types": ["WBAN", "NWS COOP", "NWS COOP"], "types_id": ["24264", "047296", "047296"]}, {"state": "CA", "elevation": "387", "name": "GILLESPIE FLD AP", "lat": "32.82611", "lng": "-116.97250", "types": ["WBAN", "FAA"], "types_id": ["53143", "SEE"]}, {"state": "CA", "elevation": "1490", "name": "MARCH FLD", "lat": "33.86667", "lng": "-117.25000", "types": ["WBAN", "NWS COOP"], "types_id": ["03106", "045326"]}, {"state": "CA", "elevation": "2630", "name": "CAMPO", "lat": "32.62333", "lng": "-116.47278", "types": ["WBAN", "NWS COOP", "FAA", "ICAO", "NWSLI"], "types_id": ["03164", "041424", "CZZ", "KCZZ", "CZZ"]}, {"state": "CA", "elevation": "-63", "name": "INDIO", "lat": "33.68333", "lng": "-116.16667", "types": ["WBAN"], "types_id": ["03105"]}, {"state": "CA", "elevation": "420", "name": "PALM SPRINGS", "lat": "33.90000", "lng": "-116.55000", "types": ["WBAN"], "types_id": ["23117"]}, {"state": "CA", "elevation": "4510", "name": "SANDBERG", "lat": "34.74361", "lng": "-118.72417", "types": ["WBAN", "NWS COOP", "FAA", "WMO", "ICAO", "NWSLI"], "types_id": ["23187", "047735", "SDB", "72383", "KSDB", "SDB"]}, {"state": "CA", "elevation": "3585", "name": "LEBEC", "lat": "34.83278", "lng": "-118.86500", "types": ["WBAN", "NWS COOP", "FAA", "NWSLI", "NWSLI"], "types_id": ["93170", "044863", "LBC", "LBC", "LEBC1"]}, {"state": "CA", "elevation": "515", "name": "SAN DIEGO BROWN FLD", "lat": "32.57222", "lng": "-116.97944", "types": ["WBAN", "WBAN", "WBAN", "FAA", "ICAO"], "types_id": ["23196", "23196", "03178", "SDM", "KSDM"]}, {"state": "CA", "elevation": "670", "name": "COALINGA", "lat": "36.13556", "lng": "-120.36056", "types": ["WBAN", "NWS COOP", "NWSLI"], "types_id": ["23252", "041864", "CNGC1"]}, {"state": "CA", "elevation": "421", "name": "PALM SPRINGS RGNL AP", "lat": "33.82806", "lng": "-116.50528", "types": ["WBAN", "WBAN", "FAA", "ICAO"], "types_id": ["93138", "93138", "PSP", "KPSP"]}, {"state": "CA", "elevation": "165", "name": "MONTEREY", "lat": "36.58333", "lng": "-121.85000", "types": ["WBAN"], "types_id": ["23260"]}, {"state": "CA", "elevation": "814", "name": "PASO ROBLES CAA AP", "lat": "35.60000", "lng": "-120.65000", "types": ["WBAN", "NWS COOP"], "types_id": ["23231", "046742"]}, {"state": "CA", "elevation": "810", "name": "PASO ROBLES MUNI AP", "lat": "35.66972", "lng": "-120.62833", "types": ["WBAN", "NWS COOP", "FAA", "ICAO", "NWSLI"], "types_id": ["93209", "046742", "PRB", "KPRB", "PRB"]}, {"state": "CA", "elevation": "2635", "name": "MONTAGUE SISKIYOU CO AP", "lat": "41.78056", "lng": "-122.47167", "types": ["WBAN", "NWS COOP", "FAA", "ICAO", "NWSLI"], "types_id": ["24259", "045785", "SIY", "KSIY", "SIY"]}, {"state": "CA", "elevation": "165", "name": "MONTEREY PENINSUL AP", "lat": "36.58806", "lng": "-121.84528", "types": ["WBAN", "WBAN", "NWS COOP", "NWS COOP", "FAA", "ICAO"], "types_id": ["23259", "23259", "045799", "045796", "MRY", "KMRY"]}, {"state": "CA", "elevation": "66", "name": "FT BRAGG", "lat": "39.40000", "lng": "-123.81667", "types": ["WBAN", "NWS COOP", "FAA", "ICAO", "NWSLI"], "types_id": ["23256", "043164", "FOB", "KFOB", "FOB"]}, {"state": "CA", "elevation": "69", "name": "SHELTER COVE AP", "lat": "40.03306", "lng": "-124.06778", "types": ["WBAN", "FAA", "ICAO"], "types_id": ["04204", "OQ5", "KOQ5"]}, {"state": "CA", "elevation": "4388", "name": "ALTURAS", "lat": "41.50000", "lng": "-120.53333", "types": ["WBAN", "FAA"], "types_id": ["94264", "S11"]}, {"state": "CA", "elevation": "7198", "name": "DONNER SUMMIT", "lat": "39.31667", "lng": "-120.33333", "types": ["WBAN", "NWS COOP"], "types_id": ["23226", "042470"]}, {"state": "CA", "elevation": "2284", "name": "DUNSMUIR", "lat": "41.21667", "lng": "-122.26667", "types": ["WBAN", "FAA"], "types_id": ["24262", "PDM"]}, {"state": "CA", "elevation": "2428", "name": "INYOKERN KERN CO", "lat": "35.66667", "lng": "-117.83333", "types": ["WBAN", "WBAN", "FAA", "ICAO"], "types_id": ["93194", "93194", "IYK", "KIYK"]}, {"state": "CA", "elevation": "160", "name": "WATSONVILLE MUNI AP", "lat": "36.93583", "lng": "-121.78861", "types": ["WBAN", "WBAN", "WBAN", "FAA", "ICAO"], "types_id": ["23249", "23277", "23277", "WVI", "KWVI"]}, {"state": "CA", "elevation": "276", "name": "FRESNO CHANDLER AP", "lat": "36.73333", "lng": "-119.81667", "types": ["WBAN", "WBAN", "NWS COOP", "NWS COOP", "FAA", "FAA", "NWSLI", "NWSLI"], "types_id": ["23167", "23167", "043257", "043252", "FNO", "FCH", "FNO", "FCH"]}, {"state": "CA", "elevation": "333", "name": "FRESNO YOSEMITE INTL AP", "lat": "36.78000", "lng": "-119.71944", "types": ["WBAN", "WBAN", "NWS COOP", "FAA", "WMO", "ICAO", "NWSLI"], "types_id": ["23106", "93193", "043257", "FAT", "72389", "KFAT", "FAT"]}, {"state": "CA", "elevation": "59", "name": "SAN SIMEON PT PIEDRAS BLANCAS", "lat": "35.66556", "lng": "-121.28472", "types": ["WBAN", "WBAN", "NWS COOP", "FAA", "FAA", "WMO", "ICAO", "NWSLI"], "types_id": ["23267", "93226", "047024", "PPD", "87Q", "72390", "K87Q", "PPD"]}, {"state": "CA", "elevation": "741", "name": "BURBANK GLENDALE PASADENA AP", "lat": "34.20056", "lng": "-118.35750", "types": ["WBAN", "NWS COOP", "FAA", "ICAO", "NWSLI"], "types_id": ["23152", "041194", "BUR", "KBUR", "BBKC1"]}, {"state": "CA", "elevation": "1424", "name": "TEJON RANCHO", "lat": "35.03333", "lng": "-118.75000", "types": ["WBAN"], "types_id": ["03108"]}, {"state": "CA", "elevation": "367", "name": "POINT ARGUELLO AFWB", "lat": "34.66667", "lng": "-120.58333", "types": ["WBAN", "NWS COOP", "NWS COOP"], "types_id": ["93215", "047015", "049255"]}, {"state": "CA", "elevation": "2230", "name": "CHINA LAKE NAF", "lat": "35.68750", "lng": "-117.69306", "types": ["WBAN", "NWS COOP", "NWS COOP", "FAA", "WMO", "ICAO", "NWSLI", "NWSLI", "NWSLI"], "types_id": ["93104", "044280", "041733", "NID", "74612", "KNID", "NID", "CHIC1", "NID"]}, {"state": "CA", "elevation": "4184", "name": "SUSANVILLE MUNI AP", "lat": "40.41667", "lng": "-120.66306", "types": ["WBAN", "WBAN", "NWS COOP", "NWS COOP", "NWS COOP", "FAA", "FAA", "ICAO", "NWSLI", "NWSLI", "NWSLI"], "types_id": ["24258", "24258", "048702", "048702", "048702", "SVE", "SVE", "KSVE", "SVE", "SVE", "SNVC1"]}, {"state": "CA", "elevation": "1425", "name": "TEJON RANCHO", "lat": "35.02333", "lng": "-118.74972", "types": ["WBAN", "NWS COOP", "NWSLI"], "types_id": ["03108", "048839", "TEJC1"]}, {"state": "CA", "elevation": "3535", "name": "MT SHASTA", "lat": "41.33250", "lng": "-122.33278", "types": ["WBAN", "NWS COOP", "FAA", "ICAO", "NWSLI"], "types_id": ["24215", "045983", "MHS", "KMHS", "MHS"]}, {"state": "CA", "elevation": "3581", "name": "MT SHASTA AP", "lat": "41.28333", "lng": "-122.30000", "types": ["WBAN", "NWS COOP"], "types_id": ["24215", "045988"]}, {"state": "CA", "elevation": "1602", "name": "AVALON CATALINA AP", "lat": "33.40500", "lng": "-118.41583", "types": ["WBAN", "WBAN", "NWS COOP", "FAA", "FAA", "ICAO", "NWSLI"], "types_id": ["23191", "23191", "047910", "AVX", "AVX", "KAVX", "AVX"]}, {"state": "CA", "elevation": "1575", "name": "SANTA CATALINA BUFFALO SPRINGS", "lat": "33.41667", "lng": "-118.40000", "types": ["WBAN", "NWS COOP"], "types_id": ["23191", "047910"]}, {"state": "CA", "elevation": "242", "name": "SANTA MARIA PUBLIC AP", "lat": "34.89944", "lng": "-120.44861", "types": ["WBAN", "WBAN", "WBAN", "NWS COOP", "FAA", "WMO", "WMO", "ICAO", "NWSLI"], "types_id": ["23236", "23236", "23273", "047946", "SMX", "72394", "72394", "KSMX", "SMX"]}, {"state": "CA", "elevation": "272", "name": "CHICO ARMY FLYING SCHOOL", "lat": "39.80000", "lng": "-121.85000", "types": ["WBAN", "NWS COOP", "FAA", "ICAO", "NWSLI"], "types_id": ["93203", "041712", "CIC", "KCIC", "CIC"]}, {"state": "CA", "elevation": "114", "name": "SANTA ROSA SONOMA CO AP", "lat": "38.50389", "lng": "-122.81028", "types": ["WBAN", "WBAN", "WBAN", "NWS COOP", "FAA", "ICAO", "NWSLI"], "types_id": ["23213", "23274", "23213", "047971", "STS", "KSTS", "STS"]}, {"state": "CA", "elevation": "10", "name": "NEWPORT BEACH HARBOR", "lat": "33.60250", "lng": "-117.88028", "types": ["WBAN", "NWS COOP", "FAA", "NWSLI"], "types_id": ["03107", "046175", "3L3", "3L3"]}, {"state": "CA", "elevation": "497", "name": "REDDING MUNI AP", "lat": "40.51750", "lng": "-122.29861", "types": ["WBAN", "WBAN", "NWS COOP", "FAA", "WMO", "ICAO", "NWSLI"], "types_id": ["24206", "24257", "047304", "RDD", "72592", "KRDD", "RDD"]}, {"state": "CA", "elevation": "2733", "name": "WOFFORD HTS KERNVILLE", "lat": "35.71667", "lng": "-118.45000", "types": ["WBAN", "NWS COOP", "NWS COOP", "NWS COOP"], "types_id": ["93166", "044527", "044527", "049754"]}, {"state": "CA", "elevation": "200", "name": "ARCATA EUREKA AP", "lat": "40.97806", "lng": "-124.10861", "types": ["WBAN", "WBAN", "NWS COOP", "FAA", "ICAO", "NWSLI"], "types_id": ["24245", "24283", "040263", "ACV", "KACV", "ACV"]}, {"state": "CA", "elevation": "28", "name": "OCEANSIDE MUNI AP", "lat": "33.21944", "lng": "-117.34944", "types": ["WBAN", "FAA", "ICAO"], "types_id": ["53121", "OKB", "KOKB"]}, {"state": "CA", "elevation": "249", "name": "HANFORD MUNI AP", "lat": "36.31889", "lng": "-119.62889", "types": ["WBAN", "FAA", "ICAO"], "types_id": ["53119", "HJO", "KHJO"]}, {"state": "CA", "elevation": "1393", "name": "RAMONA AP", "lat": "33.03750", "lng": "-116.91583", "types": ["WBAN", "FAA", "ICAO"], "types_id": ["53120", "RNM", "KRNM"]}, {"state": "CA", "elevation": "113", "name": "VACAVILLE NUT TREE AP", "lat": "38.37694", "lng": "-121.96139", "types": ["WBAN", "FAA", "FAA", "ICAO", "ICAO"], "types_id": ["93241", "O45", "VCB", "KO45", "KVCB"]}, {"state": "CA", "elevation": "4375", "name": "ALTURAS MUNI AP", "lat": "41.49139", "lng": "-120.56444", "types": ["WBAN", "FAA", "FAA", "ICAO", "ICAO"], "types_id": ["94299", "O00", "AAT", "KO00", "KAAT"]}, {"state": "CA", "elevation": "253", "name": "MADERA MUNI AP", "lat": "36.98778", "lng": "-120.11056", "types": ["WBAN", "FAA", "ICAO"], "types_id": ["93242", "MAE", "KMAE"]}, {"state": "CA", "elevation": "289", "name": "POINT REYES LIGHT STN", "lat": "38.00000", "lng": "-123.01667", "types": ["WBAN", "WBAN", "NWS COOP", "NWS COOP", "FAA", "WMO", "NWSLI"], "types_id": ["23290", "23290", "047027", "047027", "97Q", "72495", "97Q"]}, {"state": "CA", "elevation": "480", "name": "NEEDLES", "lat": "34.83000", "lng": "-114.59361", "types": ["WBAN", "NWS COOP", "NWS COOP", "NWSLI"], "types_id": ["23179", "046115", "046115", "EEDC1"]}, {"state": "CA", "elevation": "890", "name": "NEEDLES AP", "lat": "34.76750", "lng": "-114.61889", "types": ["WBAN", "NWS COOP", "FAA", "ICAO", "NWSLI"], "types_id": ["23179", "046118", "EED", "KEED", "EED"]}, {"state": "CA", "elevation": "1003", "name": "LOS ANGELES WHITEMAN AP", "lat": "34.25917", "lng": "-118.41333", "types": ["WBAN", "FAA", "ICAO"], "types_id": ["53130", "WHP", "KWHP"]}, {"state": "CA", "elevation": "171", "name": "EAST LOS ANGELES", "lat": "34.00000", "lng": "-118.15000", "types": ["WBAN", "NWS COOP"], "types_id": ["93191", "042637"]}, {"state": "CA", "elevation": "1299", "name": "FONTANA", "lat": "34.10000", "lng": "-117.41667", "types": ["WBAN", "WBAN", "WBAN", "NWS COOP", "NWS COOP", "NWS COOP", "FAA", "NWSLI"], "types_id": ["93156", "93156", "93156", "043117", "043117", "043117", "FON", "FON"]}, {"state": "CA", "elevation": "358", "name": "FRESNO", "lat": "36.73333", "lng": "-119.80000", "types": ["WBAN", "NWS COOP"], "types_id": ["53125", "043250"]}, {"state": "CA", "elevation": "43", "name": "CRESCENT CITY", "lat": "41.79583", "lng": "-124.21472", "types": ["WBAN", "NWS COOP", "NWS COOP", "NWSLI"], "types_id": ["24260", "042147", "042147", "CECC1"]}, {"state": "CA", "elevation": "2600", "name": "BEAUMONT #2", "lat": "33.92528", "lng": "-116.96694", "types": ["WBAN", "WBAN", "NWS COOP", "NWS COOP", "FAA", "FAA", "ICAO", "ICAO", "NWSLI", "NWSLI"], "types_id": ["23156", "23156", "040609", "040609", "BUO", "BUO", "KBUO", "KBUO", "BUO", "BUO"]}, {"state": "CA", "elevation": "56", "name": "CRESCENT CITY MCNAMARA AP", "lat": "41.78028", "lng": "-124.23667", "types": ["WBAN", "NWS COOP", "FAA", "ICAO", "NWSLI"], "types_id": ["24286", "042149", "CEC", "KCEC", "CEC"]}, {"state": "CA", "elevation": "4115", "name": "GOAT MTN TOC", "lat": "35.51667", "lng": "-116.45000", "types": ["WBAN", "FAA"], "types_id": ["03187", "KQIS"]}, {"state": "CA", "elevation": "2044", "name": "TWENTYNINE PALMS NAA", "lat": "34.28333", "lng": "-116.15000", "types": ["WBAN"], "types_id": ["03189"]}, {"state": "CA", "elevation": "2519", "name": "MONTAGUE YREKA MUNI AP", "lat": "41.73333", "lng": "-122.55000", "types": ["WBAN", "WBAN", "NWS COOP", "NWS COOP", "FAA", "NWSLI"], "types_id": ["24214", "24214", "045783", "045783", "1O5", "1O5"]}, {"state": "CA", "elevation": "26", "name": "BLUNTS REEF LS", "lat": "40.43333", "lng": "-124.50000", "types": ["WBAN", "FAA", "WMO"], "types_id": ["04233", "84Q", "72590"]}, {"state": "CA", "elevation": "6", "name": "HUMBOLDT BAY USCG STN", "lat": "40.76667", "lng": "-124.23333", "types": ["WBAN", "WBAN", "FAA"], "types_id": ["24263", "24263", "88Q"]}, {"state": "CA", "elevation": "190", "name": "OROVILLE MUNI AP", "lat": "39.49000", "lng": "-121.61833", "types": ["WBAN", "WBAN", "FAA", "FAA", "ICAO"], "types_id": ["93210", "93210", "OVE", "OVE", "KOVE"]}, {"state": "CA", "elevation": "6314", "name": "SOUTH LAKE TAHOE AP", "lat": "38.89833", "lng": "-119.99472", "types": ["WBAN", "NWS COOP", "FAA", "ICAO", "NWSLI"], "types_id": ["93230", "048762", "TVL", "KTVL", "TVL"]}, {"state": "CA", "elevation": "1531", "name": "AUBURN MUNI AP", "lat": "38.95472", "lng": "-121.08194", "types": ["WBAN", "WBAN", "NWS COOP", "FAA", "ICAO"], "types_id": ["23224", "23224", "040389", "AUN", "KAUN"]}, {"state": "CA", "elevation": "59", "name": "POINT ARENA", "lat": "38.95000", "lng": "-123.73333", "types": ["WBAN", "NWS COOP", "FAA", "NWSLI"], "types_id": ["93208", "047011", "PAA", "PAA"]}, {"state": "CA", "elevation": "128", "name": "WILLIAMS CAA AP", "lat": "39.10000", "lng": "-122.15000", "types": ["WBAN", "NWS COOP"], "types_id": ["23238", "049678"]}, {"state": "CA", "elevation": "601", "name": "UKIAH MUNI AP", "lat": "39.12583", "lng": "-123.20083", "types": ["WBAN", "NWS COOP", "FAA", "ICAO", "NWSLI"], "types_id": ["23275", "049127", "UKI", "KUKI", "UKI"]}, {"state": "CA", "elevation": "5276", "name": "BLUE CANYON AP", "lat": "39.27750", "lng": "-120.71028", "types": ["WBAN", "WBAN", "NWS COOP", "NWS COOP", "FAA", "FAA", "ICAO", "NWSLI", "NWSLI"], "types_id": ["23225", "23225", "040897", "040897", "BLU", "BLU", "KBLU", "BLU", "BLU"]}, {"state": "CA", "elevation": "131", "name": "SACRAMENTO MATHER AFB", "lat": "38.56667", "lng": "-121.30000", "types": ["WBAN", "FAA", "ICAO"], "types_id": ["23206", "MHR", "KMHR"]}, {"state": "CA", "elevation": "23", "name": "SACRAMENTO METRO AP", "lat": "38.69556", "lng": "-121.58972", "types": ["WBAN", "FAA", "ICAO"], "types_id": ["93225", "SMF", "KSMF"]}, {"state": "CA", "elevation": "18", "name": "CONCORD BUCHANAN FLD", "lat": "37.99167", "lng": "-122.05500", "types": ["WBAN", "WBAN", "NWS COOP", "FAA", "ICAO", "NWSLI"], "types_id": ["23254", "23254", "041964", "CCR", "KCCR", "CCR"]}, {"state": "CA", "elevation": "20", "name": "CARQUINEZ BRG", "lat": "38.06667", "lng": "-122.23333", "types": ["WBAN", "NWS COOP"], "types_id": ["23279", "041541"]}, {"state": "CA", "elevation": "13", "name": "HAMILTON AFB", "lat": "38.06667", "lng": "-122.51667", "types": ["WBAN", "NWS COOP", "FAA", "NWSLI"], "types_id": ["23211", "043734", "SRF", "SRF"]}, {"state": "CA", "elevation": "14", "name": "NAPA CO AP", "lat": "38.21028", "lng": "-122.28472", "types": ["WBAN", "NWS COOP", "FAA", "ICAO", "NWSLI"], "types_id": ["93227", "046066", "APC", "KAPC", "APC"]}, {"state": "CA", "elevation": "59", "name": "TRAVIS FLD AFB", "lat": "38.26667", "lng": "-121.93333", "types": ["WBAN", "NWS COOP", "FAA", "WMO", "ICAO", "NWSLI"], "types_id": ["23202", "049006", "SUU", "74516", "KSUU", "SUU"]}, {"state": "CA", "elevation": "6", "name": "OAKLAND METRO INTL AP", "lat": "37.72139", "lng": "-122.22083", "types": ["WBAN", "NWS COOP", "NWS COOP", "FAA", "WMO", "ICAO", "NWSLI"], "types_id": ["23230", "046335", "046335", "OAK", "72493", "KOAK", "OAK"]}, {"state": "CA", "elevation": "2787", "name": "MOJAVE AP", "lat": "35.06667", "lng": "-118.15000", "types": ["WBAN", "FAA", "ICAO"], "types_id": ["03183", "MHV", "KMHV"]}, {"state": "CA", "elevation": "46", "name": "LA JOLLA", "lat": "32.83333", "lng": "-117.26667", "types": ["WBAN"], "types_id": ["53100"]}, {"state": "CA", "elevation": "7", "name": "CRISSY FLD", "lat": "37.80000", "lng": "-122.46667", "types": ["WBAN", "NWS COOP"], "types_id": ["23281", "042165"]}, {"state": "CA", "elevation": "26", "name": "STOCKTON METRO AP", "lat": "37.88917", "lng": "-121.22583", "types": ["WBAN", "NWS COOP", "FAA", "WMO", "ICAO", "NWSLI"], "types_id": ["23237", "048558", "SCK", "72492", "KSCK", "SCK"]}, {"state": "CA", "elevation": "4102", "name": "BISHOP AP", "lat": "37.37111", "lng": "-118.35806", "types": ["WBAN", "WBAN", "WBAN", "NWS COOP", "NWS COOP", "NWS COOP", "FAA", "WMO", "ICAO", "NWSLI"], "types_id": ["23157", "23157", "23157", "040822", "040822", "040822", "BIH", "72480", "KBIH", "BIH"]}, {"state": "CA", "elevation": "39", "name": "MOFFETT FEDERAL AIRFIELD", "lat": "37.40583", "lng": "-122.04806", "types": ["WBAN", "NWS COOP", "FAA", "WMO", "ICAO"], "types_id": ["23244", "045747", "NUQ", "74509", "KNUQ"]}, {"state": "CA", "elevation": "130", "name": "PILLAR POINT AFS", "lat": "37.50000", "lng": "-122.50000", "types": ["WBAN", "FAA", "WMO"], "types_id": ["93222", "53Q", "74504"]}, {"state": "CA", "elevation": "73", "name": "MODESTO CITY CO AP", "lat": "37.62417", "lng": "-120.95056", "types": ["WBAN", "WBAN", "NWS COOP", "FAA", "ICAO", "NWSLI"], "types_id": ["23258", "23258", "045738", "MOD", "KMOD", "MOD"]}, {"state": "CA", "elevation": "43", "name": "HAYWARD AIR TERMINAL", "lat": "37.65417", "lng": "-122.11500", "types": ["WBAN", "NWS COOP", "FAA", "ICAO", "NWSLI"], "types_id": ["93228", "043861", "HWD", "KHWD", "HWD"]}, {"state": "CA", "elevation": "141", "name": "FRITZSCHE AAF", "lat": "36.68333", "lng": "-121.76667", "types": ["WBAN", "NWS COOP", "FAA", "ICAO", "NWSLI"], "types_id": ["93217", "043186", "OAR", "KOAR", "OAR"]}, {"state": "CA", "elevation": "40", "name": "S E FARALLON ISLAND", "lat": "37.70000", "lng": "-123.00000", "types": ["WBAN", "WBAN", "WBAN", "NWS COOP", "FAA", "FAA", "NWSLI", "NWSLI"], "types_id": ["23270", "23270", "23270", "048376", "50Q", "50Q", "50Q", "50Q"]}, {"state": "CA", "elevation": "4206", "name": "MT HAMILTON", "lat": "37.34361", "lng": "-121.64250", "types": ["WBAN", "NWS COOP", "NWSLI"], "types_id": ["23261", "045933", "MHAC1"]}, {"state": "CA", "elevation": "133", "name": "SAN JOSE REID HILLVIEW AP", "lat": "37.33333", "lng": "-121.81667", "types": ["WBAN", "FAA", "ICAO"], "types_id": ["93232", "RHV", "KRHV"]}, {"state": "CA", "elevation": "2350", "name": "BICYCLE LAKE FT IRWIN AAF", "lat": "35.28333", "lng": "-116.63333", "types": ["WBAN", "FAA", "WMO", "ICAO"], "types_id": ["03182", "BYS", "74611", "KBYS"]}, {"state": "CA", "elevation": "9", "name": "SANTA BARBARA MUNI AP", "lat": "34.42583", "lng": "-119.84250", "types": ["WBAN", "NWS COOP", "NWS COOP", "FAA", "WMO", "ICAO", "NWSLI"], "types_id": ["23190", "047905", "047905", "SBA", "72392", "KSBA", "SBA"]}, {"state": "CA", "elevation": "5638", "name": "SANTIAGO PEAK", "lat": "33.71083", "lng": "-117.53611", "types": ["WBAN", "NWS COOP", "NWSLI"], "types_id": ["93185", "047993", "SAOC1"]}, {"state": "CA", "elevation": "7128", "name": "MAMMOTH YOSEMITE AP", "lat": "37.63333", "lng": "-118.85000", "types": ["WBAN", "WBAN", "FAA", "FAA", "ICAO"], "types_id": ["03181", "03181", "MMH", "MMH", "KMMH"]}, {"state": "CA", "elevation": "2524", "name": "PALMDALE AP", "lat": "34.62944", "lng": "-118.08361", "types": ["WBAN", "NWS COOP", "FAA", "WMO", "ICAO"], "types_id": ["23182", "046627", "PMD", "72382", "KPMD"]}, {"state": "CA", "elevation": "2338", "name": "LANCASTER WM J FOX FLD", "lat": "34.74111", "lng": "-118.21167", "types": ["WBAN", "WBAN", "NWS COOP", "FAA", "ICAO", "NWSLI"], "types_id": ["03159", "03159", "044749", "WJF", "KWJF", "WJF"]}, {"state": "CA", "elevation": "5712", "name": "MT WILSON", "lat": "34.23333", "lng": "-118.06667", "types": ["WBAN", "NWS COOP", "FAA", "WMO", "NWSLI"], "types_id": ["93136", "046003", "MWS", "72289", "MWS"]}, {"state": "CA", "elevation": "770", "name": "VAN NUYS AP", "lat": "34.20972", "lng": "-118.48917", "types": ["WBAN", "WBAN", "WBAN", "WBAN", "FAA", "ICAO"], "types_id": ["23130", "23130", "23130", "23130", "VNY", "KVNY"]}, {"state": "CA", "elevation": "75", "name": "CAMARILLO AP", "lat": "34.21667", "lng": "-119.08333", "types": ["WBAN", "WBAN", "WBAN", "FAA", "ICAO"], "types_id": ["23136", "23136", "23136", "CMA", "KCMA"]}, {"state": "CA", "elevation": "36", "name": "OXNARD VENTURA CO AP", "lat": "34.20083", "lng": "-119.20694", "types": ["WBAN", "WBAN", "WBAN", "FAA", "ICAO"], "types_id": ["93110", "93110", "93110", "OXR", "KOXR"]}, {"state": "CA", "elevation": "174", "name": "SANTA MONICA MUNI AP", "lat": "34.01583", "lng": "-118.45139", "types": ["WBAN", "NWS COOP", "FAA", "ICAO", "NWSLI"], "types_id": ["93197", "047951", "SMO", "KSMO", "SMO"]}, {"state": "CA", "elevation": "949", "name": "ONTARIO INTL AP", "lat": "34.05611", "lng": "-117.60028", "types": ["WBAN", "NWS COOP", "FAA", "ICAO"], "types_id": ["03102", "046457", "ONT", "KONT"]}, {"state": "CA", "elevation": "31", "name": "LONG BEACH DAUGHERTY FLD", "lat": "33.81167", "lng": "-118.14639", "types": ["WBAN", "WBAN", "NWS COOP", "FAA", "WMO", "ICAO", "NWSLI"], "types_id": ["23129", "23129", "045085", "LGB", "72297", "KLGB", "LGB"]}, {"state": "CA", "elevation": "96", "name": "FULLERTON MUNI AP", "lat": "33.87194", "lng": "-117.97889", "types": ["WBAN", "FAA", "ICAO"], "types_id": ["03166", "FUL", "KFUL"]}, {"state": "CA", "elevation": "63", "name": "HAWTHORNE MUNI AP", "lat": "33.92278", "lng": "-118.33417", "types": ["WBAN", "FAA", "ICAO"], "types_id": ["03167", "HHR", "KHHR"]}, {"state": "CA", "elevation": "97", "name": "LOS ANGELES INTL AP", "lat": "33.93806", "lng": "-118.38889", "types": ["WBAN", "WBAN", "NWS COOP", "NWS COOP", "FAA", "WMO", "ICAO", "NWSLI"], "types_id": ["23174", "23174", "045114", "045114", "LAX", "72295", "KLAX", "LAX"]}, {"state": "CA", "elevation": "805", "name": "RIVERSIDE MUNI AP", "lat": "33.95194", "lng": "-117.43861", "types": ["WBAN", "FAA", "ICAO"], "types_id": ["03171", "RAL", "KRAL"]}, {"state": "CA", "elevation": "650", "name": "CHINO AP", "lat": "33.97528", "lng": "-117.63611", "types": ["WBAN", "FAA", "ICAO"], "types_id": ["03179", "CNO", "KCNO"]}, {"state": "CA", "elevation": "-112", "name": "PALM SPRINGS THERMAL AP", "lat": "33.62778", "lng": "-116.16000", "types": ["WBAN", "NWS COOP", "FAA", "ICAO", "NWSLI"], "types_id": ["03104", "048892", "TRM", "KTRM", "TRM"]}, {"state": "CA", "elevation": "1214", "name": "NEWHALL AP", "lat": "34.40000", "lng": "-118.55000", "types": ["WBAN", "NWS COOP"], "types_id": ["23180", "046159"]}, {"state": "CA", "elevation": "54", "name": "SANTA ANA JOHN WAYNE AP", "lat": "33.68000", "lng": "-117.86639", "types": ["WBAN", "WBAN", "FAA", "ICAO"], "types_id": ["93184", "93184", "SNA", "KSNA"]}, {"state": "CA", "elevation": "52", "name": "ORANGE CO AAF", "lat": "33.66667", "lng": "-117.86667", "types": ["WBAN"], "types_id": ["23125"]}, {"state": "CA", "elevation": "2630", "name": "CAMPO HUMPHRIES STORE", "lat": "32.61667", "lng": "-116.46667", "types": ["WBAN"], "types_id": ["93163"]}, {"state": "CA", "elevation": "-58", "name": "IMPERIAL CO AP", "lat": "32.83417", "lng": "-115.57861", "types": ["WBAN", "NWS COOP", "FAA", "ICAO"], "types_id": ["03144", "044224", "IPL", "KIPL"]}, {"state": "CA", "elevation": "6211", "name": "MT LAGUNA CAA AP", "lat": "32.86667", "lng": "-116.41667", "types": ["WBAN", "NWS COOP"], "types_id": ["23178", "045965"]}, {"state": "CA", "elevation": "182", "name": "SAN CLEMENTE IS NAAS", "lat": "33.02333", "lng": "-118.58806", "types": ["WBAN", "WBAN", "FAA", "ICAO"], "types_id": ["93117", "93117", "NUC", "KNUC"]}, {"state": "CA", "elevation": "328", "name": "CARLSBAD PALOMAR AP", "lat": "33.12806", "lng": "-117.27944", "types": ["WBAN", "FAA", "WMO", "ICAO"], "types_id": ["03177", "CRQ", "72292", "KCRQ"]}, {"state": "CA", "elevation": "26", "name": "OCEANSIDE CAA AP", "lat": "33.23333", "lng": "-117.41667", "types": ["WBAN", "NWS COOP", "FAA", "NWSLI"], "types_id": ["23181", "046378", "OCN", "OCN"]}, {"state": "CA", "elevation": "141", "name": "ANACAPA ISLAND", "lat": "34.01667", "lng": "-119.36667", "types": ["WBAN", "WBAN", "NWS COOP", "NWS COOP", "FAA", "NWSLI"], "types_id": ["93125", "93125", "040188", "040188", "NMQ", "NMQ"]}, {"state": "CA", "elevation": "751", "name": "NEEDLES AF", "lat": "34.76667", "lng": "-114.61667", "types": ["WBAN"], "types_id": ["03127"]}, {"state": "CA", "elevation": "152", "name": "MERCED MUNI AP", "lat": "37.28472", "lng": "-120.51278", "types": ["WBAN", "WBAN", "WBAN", "FAA", "ICAO"], "types_id": ["23257", "23257", "23257", "MCE", "KMCE"]}, {"state": "CA", "elevation": "758", "name": "PASADENA AAF", "lat": "34.15000", "lng": "-118.13333", "types": ["WBAN"], "types_id": ["23121"]}, {"state": "CA", "elevation": "1917", "name": "BARSTOW DAGGETT AP", "lat": "34.85361", "lng": "-116.78583", "types": ["WBAN", "NWS COOP", "FAA", "ICAO", "NWSLI"], "types_id": ["23161", "042257", "DAG", "KDAG", "DAG"]}, {"state": "CA", "elevation": "417", "name": "SAN DIEGO MONTGOMERY FLD", "lat": "32.81583", "lng": "-117.13944", "types": ["WBAN", "FAA", "ICAO"], "types_id": ["03131", "MYF", "KMYF"]}, {"state": "CA", "elevation": "8", "name": "SAN FRANCISCO INTL AP", "lat": "37.65806", "lng": "-122.43778", "types": ["WBAN", "NWS COOP", "FAA", "WMO", "ICAO", "NWSLI"], "types_id": ["23234", "047769", "SFO", "72494", "KSFO", "SFO"]}, {"state": "CA", "elevation": "405", "name": "GILLESPIE FLD", "lat": "32.81667", "lng": "-116.96667", "types": ["WBAN", "NWS COOP", "FAA", "ICAO", "NWSLI"], "types_id": ["03172", "043410", "SEE", "KSEE", "SEE"]}, {"state": "CA", "elevation": "15", "name": "SAN DIEGO LINDBERGH FLD", "lat": "32.73361", "lng": "-117.18306", "types": ["WBAN", "NWS COOP", "FAA", "WMO", "ICAO", "NWSLI"], "types_id": ["23188", "047740", "SAN", "72290", "KSAN", "SAN"]}, {"state": "CA", "elevation": "200", "name": "SAN LUIS OBISPO AP", "lat": "35.23722", "lng": "-120.64139", "types": ["WBAN", "WBAN", "FAA", "ICAO"], "types_id": ["93206", "93206", "SBP", "KSBP"]}, {"state": "CA", "elevation": "315", "name": "SAN LUIS OBISPO POLYTECH", "lat": "35.30556", "lng": "-120.66389", "types": ["WBAN", "NWS COOP", "NWSLI"], "types_id": ["93233", "047851", "SBPC1"]}, {"state": "CA", "elevation": "49", "name": "NORTH ISLAND NAS", "lat": "32.70000", "lng": "-117.20000", "types": ["WBAN", "FAA", "ICAO"], "types_id": ["93112", "NZY", "KNZY"]}, {"state": "CA", "elevation": "150", "name": "SAN FRANCISCO DWTN", "lat": "37.77056", "lng": "-122.42694", "types": ["WBAN", "NWS COOP", "NWSLI"], "types_id": ["23272", "047772", "SFOC1"]}, {"state": "CA", "elevation": "962", "name": "BAKER", "lat": "35.27750", "lng": "-116.05861", "types": ["WBAN", "NWS COOP", "NWS COOP", "NWSLI"], "types_id": ["93149", "040436", "040436", "BKEC1"]}, {"state": "CA", "elevation": "489", "name": "BAKERSFIELD AP", "lat": "35.43444", "lng": "-119.05417", "types": ["WBAN", "NWS COOP", "FAA", "WMO", "ICAO", "NWSLI"], "types_id": ["23155", "040442", "BFL", "72384", "KBFL", "BFL"]}, {"state": "CA", "elevation": "395", "name": "BLYTHE AP", "lat": "33.61861", "lng": "-114.71417", "types": ["WBAN", "NWS COOP", "FAA", "ICAO", "NWSLI"], "types_id": ["23158", "040927", "BLH", "KBLH", "BLH"]}, {"state": "CA", "elevation": "393", "name": "LIVERMORE MUNI AP", "lat": "37.69278", "lng": "-121.81444", "types": ["WBAN", "WBAN", "NWS COOP", "FAA", "ICAO", "NWSLI"], "types_id": ["23285", "23285", "044995", "LVK", "KLVK", "LVK"]}, {"state": "CA", "elevation": "26", "name": "SAN DIEGO WBO", "lat": "32.71667", "lng": "-117.16667", "types": ["WBAN", "NWS COOP"], "types_id": ["53124", "047738"]}, {"state": "CA", "elevation": "1001", "name": "LA VERNE BRACKETT FLD", "lat": "34.10000", "lng": "-117.78333", "types": ["WBAN", "FAA", "ICAO", "NWSLI"], "types_id": ["03180", "POC", "KPOC", "POC"]}, {"state": "CA", "elevation": "35", "name": "LOS ALAMITOS AAF", "lat": "33.79000", "lng": "-118.05194", "types": ["WBAN", "FAA", "NWSLI"], "types_id": ["53141", "SLI", "SLI"]}, {"state": "CA", "elevation": "2283", "name": "EDWARDS AFB NORTH AUX FLD", "lat": "34.98833", "lng": "-117.86472", "types": ["WBAN"], "types_id": ["53144"]}, {"state": "CA", "elevation": "246", "name": "SHELTER COVE AVIATION", "lat": "40.03306", "lng": "-124.07278", "types": ["WBAN", "WBAN", "NWS COOP", "NWS COOP", "FAA", "FAA", "NWSLI", "NWSLI"], "types_id": ["94262", "94262", "048163", "048163", "O87", "O87", "O87", "O87"]}, {"state": "CA", "elevation": "20", "name": "EUREKA WFO WOODLEY ISLAND", "lat": "40.80972", "lng": "-124.16028", "types": ["WBAN", "NWS COOP", "FAA", "WMO", "ICAO", "NWSLI"], "types_id": ["24213", "042910", "EKA", "72594", "KEKA", "EKA"]}, {"state": "CA", "elevation": "78", "name": "MERCED 23 WSW", "lat": "37.23806", "lng": "-120.88250", "types": ["WBAN", "NWS COOP"], "types_id": ["93243", "045548"]}, {"state": "CA", "elevation": "1418", "name": "REDDING 12 WNW", "lat": "40.65083", "lng": "-122.60667", "types": ["WBAN", "NWS COOP"], "types_id": ["04222", "047305"]}, {"state": "CA", "elevation": "84", "name": "STOVEPIPE WELLS 1 SW", "lat": "36.60194", "lng": "-117.14500", "types": ["WBAN", "NWS COOP"], "types_id": ["53139", "048594"]}, {"state": "CA", "elevation": "1127", "name": "FALLBROOK 5 NE", "lat": "33.43917", "lng": "-117.19028", "types": ["WBAN", "NWS COOP"], "types_id": ["53151", "042962"]}, {"state": "CA", "elevation": "15", "name": "SANTA BARBARA 11 W", "lat": "34.41417", "lng": "-119.87972", "types": ["WBAN", "NWS COOP"], "types_id": ["53152", "047904"]}, {"state": "CA", "elevation": "63", "name": "BODEGA 6 WSW", "lat": "38.32083", "lng": "-123.07444", "types": ["WBAN", "NWS COOP"], "types_id": ["93245", "040938"]}, {"state": "CA", "elevation": "6620", "name": "YOSEMITE VILLAGE 12 W", "lat": "37.75917", "lng": "-119.82083", "types": ["WBAN", "NWS COOP"], "types_id": ["53150", "049890"]}, {"state": "CA", "elevation": "352", "name": "TRINIDAD HEAD", "lat": "41.05000", "lng": "-124.15000", "types": ["WBAN"], "types_id": ["04238"]}, {"state": "CA", "elevation": "3198", "name": "BURNEY", "lat": "40.88028", "lng": "-121.65472", "types": ["WBAN", "WBAN", "NWS COOP", "NWS COOP", "NWS COOP", "NWS COOP", "NWS COOP", "FAA", "NWSLI", "NWSLI", "NWSLI", "NWSLI", "NWSLI"], "types_id": ["24212", "24212", "041214", "041214", "041214", "041214", "041214", "BNY", "BNY", "BNY", "BNYC1", "BNYC1", "BNYC1"]}, {"state": "CA", "elevation": "459", "name": "SAN DIEGO MIRAMAR NAS", "lat": "32.86667", "lng": "-117.13333", "types": ["WBAN", "FAA", "WMO", "ICAO"], "types_id": ["93107", "NKX", "72293", "KNKX"]}, {"state": "CA", "elevation": "499", "name": "LINDA VISTA", "lat": "32.88333", "lng": "-117.08333", "types": ["WBAN"], "types_id": ["93171"]}, {"state": "CA", "elevation": "20", "name": "IMPERIAL BEACH REAM FLD NAS", "lat": "32.56667", "lng": "-117.11667", "types": ["WBAN", "FAA", "ICAO"], "types_id": ["93115", "NRS", "KNRS"]}, {"state": "CA", "elevation": "2864", "name": "JACUMBA", "lat": "32.63333", "lng": "-116.18333", "types": ["WBAN"], "types_id": ["93165"]}, {"state": "CA", "elevation": "3002", "name": "BARRETT", "lat": "32.61667", "lng": "-116.70000", "types": ["WBAN"], "types_id": ["93150"]}, {"state": "CA", "elevation": "515", "name": "OTAY MESA", "lat": "32.61667", "lng": "-116.93333", "types": ["WBAN"], "types_id": ["93109"]}, {"state": "CA", "elevation": "4892", "name": "LOS PINOS PEAK", "lat": "33.73333", "lng": "-116.75000", "types": ["WBAN"], "types_id": ["93172"]}, {"state": "CA", "elevation": "3740", "name": "LYONS PEAK", "lat": "32.75000", "lng": "-116.73333", "types": ["WBAN"], "types_id": ["93135"]}, {"state": "CA", "elevation": "59", "name": "HOLTVILLE NAAS", "lat": "32.83333", "lng": "-115.26667", "types": ["WBAN"], "types_id": ["93103"]}, {"state": "CA", "elevation": "-43", "name": "EL CENTRO NAF", "lat": "32.81667", "lng": "-115.68333", "types": ["WBAN", "FAA", "WMO", "ICAO"], "types_id": ["23199", "NJK", "72281", "KNJK"]}, {"state": "CA", "elevation": "43", "name": "EL CENTRO IMPERIAL AP", "lat": "32.83333", "lng": "-115.50000", "types": ["WBAN"], "types_id": ["23163"]}, {"state": "CA", "elevation": "387", "name": "GILLESPIE MCAF", "lat": "32.81667", "lng": "-116.96667", "types": ["WBAN", "FAA"], "types_id": ["93122", "SEE"]}, {"state": "CA", "elevation": "899", "name": "SAN CLEMENTE AAF", "lat": "32.83333", "lng": "-118.45000", "types": ["WBAN"], "types_id": ["23135"]}, {"state": "CA", "elevation": "141", "name": "HOLTVILLE", "lat": "32.85000", "lng": "-115.25000", "types": ["WBAN"], "types_id": ["93161"]}, {"state": "CA", "elevation": "3501", "name": "DESCANSO", "lat": "32.86667", "lng": "-116.60000", "types": ["WBAN"], "types_id": ["93153"]}, {"state": "CA", "elevation": "479", "name": "CAMP KEARNEY NAAS", "lat": "32.86667", "lng": "-117.11667", "types": ["WBAN"], "types_id": ["23197"]}, {"state": "CA", "elevation": "240", "name": "EL CENTRO RANGE ONE", "lat": "32.96667", "lng": "-115.81667", "types": ["WBAN", "FAA"], "types_id": ["03146", "NJK"]}, {"state": "CA", "elevation": "26", "name": "DEL MAR NAAF", "lat": "32.96667", "lng": "-117.25000", "types": ["WBAN"], "types_id": ["23198"]}, {"state": "CA", "elevation": "751", "name": "SAN CLEMENTE AAF", "lat": "32.96667", "lng": "-118.55000", "types": ["WBAN"], "types_id": ["03112"]}, {"state": "CA", "elevation": "-226", "name": "SALTON SEA NAAF", "lat": "33.20000", "lng": "-115.83333", "types": ["WBAN"], "types_id": ["93118"]}, {"state": "CA", "elevation": "505", "name": "SAN NICHOLAS AAF", "lat": "33.23333", "lng": "-119.45000", "types": ["WBAN"], "types_id": ["23137"]}, {"state": "CA", "elevation": "-226", "name": "SALTON SEA AFS", "lat": "33.21667", "lng": "-115.86667", "types": ["WBAN", "WMO"], "types_id": ["23164", "74718"]}, {"state": "CA", "elevation": "30", "name": "SAN NICOLAS ISLAND 2", "lat": "33.26667", "lng": "-119.53333", "types": ["WBAN"], "types_id": ["03158"]}, {"state": "CA", "elevation": "138", "name": "SAN NICOLAS ISLAND", "lat": "33.25000", "lng": "-119.80000", "types": ["WBAN"], "types_id": ["93196"]}, {"state": "CA", "elevation": "-246", "name": "NILAND", "lat": "33.41667", "lng": "-115.83333", "types": ["WBAN"], "types_id": ["93119"]}, {"state": "CA", "elevation": "226", "name": "CAMP PENDLETON", "lat": "33.40000", "lng": "-117.50000", "types": ["WBAN"], "types_id": ["03123"]}, {"state": "CA", "elevation": "200", "name": "LAGUNA BEACH", "lat": "33.53333", "lng": "-117.76667", "types": ["WBAN"], "types_id": ["93168"]}, {"state": "CA", "elevation": "394", "name": "BLYTHE AAF", "lat": "33.61667", "lng": "-114.75000", "types": ["WBAN"], "types_id": ["23103"]}, {"state": "CA", "elevation": "-118", "name": "THERMAL NAF", "lat": "33.61667", "lng": "-116.16667", "types": ["WBAN"], "types_id": ["93120"]}, {"state": "CA", "elevation": "-115", "name": "THERMAL AAF", "lat": "33.63333", "lng": "-116.16667", "types": ["WBAN"], "types_id": ["23132"]}, {"state": "CA", "elevation": "390", "name": "SANTA ANA EL TORO", "lat": "33.66667", "lng": "-117.71667", "types": ["WBAN"], "types_id": ["03153"]}, {"state": "CA", "elevation": "381", "name": "EL TORO MCAS", "lat": "33.66667", "lng": "-117.73333", "types": ["WBAN", "FAA", "ICAO"], "types_id": ["93101", "NZJ", "KNZJ"]}, {"state": "CA", "elevation": "439", "name": "SAN DIEGO MIRAMAR WSCMO", "lat": "32.83333", "lng": "-117.11667", "types": ["WBAN", "FAA", "WMO"], "types_id": ["03190", "NKX", "72293"]}, {"state": "CA", "elevation": "449", "name": "SANTA CATALINA AVALON FLD", "lat": "33.36667", "lng": "-118.48333", "types": ["WBAN"], "types_id": ["23107"]}, {"state": "CA", "elevation": "75", "name": "CAMP PENDLETON MCAS", "lat": "33.30000", "lng": "-117.35000", "types": ["WBAN", "FAA", "ICAO"], "types_id": ["03154", "NFG", "KNFG"]}, {"state": "CA", "elevation": "62", "name": "CAMP PENDLETON MCAS", "lat": "33.21667", "lng": "-117.40000", "types": ["WBAN"], "types_id": ["03154"]}, {"state": "CA", "elevation": "200", "name": "SAN LUIS OBISPO NAAF", "lat": "35.30000", "lng": "-120.66667", "types": ["WBAN"], "types_id": ["23247"]}, {"state": "CA", "elevation": "89", "name": "POINT SAN LUIS OBISPO CG", "lat": "35.16667", "lng": "-120.76667", "types": ["WBAN"], "types_id": ["23268"]}, {"state": "CA", "elevation": "59", "name": "TUSTIN MCAF", "lat": "33.70000", "lng": "-117.83333", "types": ["WBAN", "WBAN", "FAA", "ICAO"], "types_id": ["93114", "93114", "NTK", "KNTK"]}, {"state": "CA", "elevation": "36", "name": "POINT FERMIN NF", "lat": "33.71667", "lng": "-118.28333", "types": ["WBAN"], "types_id": ["93182"]}, {"state": "CA", "elevation": "541", "name": "DESERT CTR AAF", "lat": "33.75000", "lng": "-115.33333", "types": ["WBAN", "FAA"], "types_id": ["23105", "DSC"]}, {"state": "CA", "elevation": "13", "name": "LONG BEACH NAVAL STN", "lat": "33.75000", "lng": "-118.23333", "types": ["WBAN", "FAA"], "types_id": ["03157", "NWF"]}, {"state": "CA", "elevation": "43", "name": "SAN PEDRO NAS", "lat": "33.75000", "lng": "-118.25000", "types": ["WBAN"], "types_id": ["93113"]}, {"state": "CA", "elevation": "105", "name": "LOMITA AAF", "lat": "33.80000", "lng": "-118.33333", "types": ["WBAN"], "types_id": ["23139"]}, {"state": "CA", "elevation": "2149", "name": "TORRANCE", "lat": "33.80000", "lng": "-118.33333", "types": ["WBAN"], "types_id": ["03174"]}, {"state": "CA", "elevation": "1516", "name": "MARCH AFB", "lat": "33.90000", "lng": "-117.25000", "types": ["WBAN", "FAA", "WMO", "ICAO"], "types_id": ["23119", "RIV", "72286", "KRIV"]}, {"state": "CA", "elevation": "1535", "name": "RIVERSIDE MARCH AFB", "lat": "33.90000", "lng": "-117.25000", "types": ["WBAN"], "types_id": ["93195"]}, {"state": "CA", "elevation": "95", "name": "LOS ANGELES", "lat": "33.93333", "lng": "-118.38333", "types": ["WBAN"], "types_id": ["23145"]}, {"state": "CA", "elevation": "1493", "name": "MT SOLEDAD SANTA ROSA ISLAND", "lat": "33.93333", "lng": "-120.11667", "types": ["WBAN"], "types_id": ["23218"]}, {"state": "CA", "elevation": "2080", "name": "SANTA CRUZ ISLAND", "lat": "34.05000", "lng": "-119.90000", "types": ["WBAN"], "types_id": ["03173"]}, {"state": "CA", "elevation": "2346", "name": "EL MONTE", "lat": "34.08333", "lng": "-118.03333", "types": ["WBAN"], "types_id": ["03165"]}, {"state": "CA", "elevation": "121", "name": "SANTA MONICA", "lat": "34.01667", "lng": "-118.45000", "types": ["WBAN"], "types_id": ["03130"]}, {"state": "CA", "elevation": "883", "name": "RICE AAF", "lat": "34.06667", "lng": "-114.83333", "types": ["WBAN"], "types_id": ["23120"]}, {"state": "CA", "elevation": "919", "name": "ONTARIO AAF", "lat": "34.05000", "lng": "-117.60000", "types": ["WBAN"], "types_id": ["23115"]}, {"state": "CA", "elevation": "997", "name": "ONTARIO", "lat": "34.06667", "lng": "-117.65000", "types": ["WBAN"], "types_id": ["93180"]}, {"state": "CA", "elevation": "551", "name": "SAN MIGUEL ISLAND", "lat": "34.05000", "lng": "-120.35000", "types": ["WBAN"], "types_id": ["23296"]}, {"state": "CA", "elevation": "1112", "name": "NORTON AFB", "lat": "34.10000", "lng": "-117.25000", "types": ["WBAN", "FAA", "ICAO"], "types_id": ["23122", "SBD", "KSBD"]}, {"state": "CA", "elevation": "10", "name": "POINT MUGU NF", "lat": "34.11667", "lng": "-119.11667", "types": ["WBAN", "FAA", "WMO", "ICAO"], "types_id": ["93111", "NTD", "72391", "KNTD"]}, {"state": "CA", "elevation": "499", "name": "GLENDALE", "lat": "34.16667", "lng": "-118.30000", "types": ["WBAN", "WBAN", "WBAN"], "types_id": ["93130", "93130", "93130"]}, {"state": "CA", "elevation": "774", "name": "BURBANK", "lat": "34.18333", "lng": "-118.31667", "types": ["WBAN"], "types_id": ["23150"]}, {"state": "CA", "elevation": "463", "name": "GLENDALE AAF", "lat": "34.15000", "lng": "-118.30000", "types": ["WBAN", "FAA"], "types_id": ["23116", "GCE"]}, {"state": "CA", "elevation": "16", "name": "POINT HUENEME NF", "lat": "34.15000", "lng": "-119.20000", "types": ["WBAN"], "types_id": ["93183"]}, {"state": "CA", "elevation": "1765", "name": "TWENTYNINE PALMS NAAS", "lat": "34.21667", "lng": "-116.05000", "types": ["WBAN", "WBAN", "WBAN"], "types_id": ["93121", "93121", "93121"]}, {"state": "CA", "elevation": "3061", "name": "CAJON", "lat": "34.30000", "lng": "-117.46667", "types": ["WBAN"], "types_id": ["93152"]}, {"state": "CA", "elevation": "1217", "name": "UPPER VAN NORMAN SOL", "lat": "34.30000", "lng": "-118.48333", "types": ["WBAN"], "types_id": ["03155"]}, {"state": "CA", "elevation": "1207", "name": "SAUGUS", "lat": "34.40000", "lng": "-118.55000", "types": ["WBAN"], "types_id": ["93186"]}, {"state": "CA", "elevation": "13", "name": "SANTA BARBARA MCAS", "lat": "34.43333", "lng": "-119.85000", "types": ["WBAN"], "types_id": ["93124"]}, {"state": "CA", "elevation": "2851", "name": "VICTORVILLE SO CA AP", "lat": "34.58333", "lng": "-117.38333", "types": ["WBAN", "FAA", "ICAO"], "types_id": ["23131", "VCV", "KVCV"]}, {"state": "CA", "elevation": "207", "name": "VANDENBERG SOUTH", "lat": "34.55000", "lng": "-120.53333", "types": ["WBAN"], "types_id": ["93220"]}, {"state": "CA", "elevation": "79", "name": "VANDENBERG AFB BOATHOUSE SITE", "lat": "34.55000", "lng": "-120.61667", "types": ["WBAN"], "types_id": ["93219"]}, {"state": "CA", "elevation": "361", "name": "POINT ARGUELLO AAF", "lat": "34.58333", "lng": "-120.63333", "types": ["WBAN"], "types_id": ["23204"]}, {"state": "CA", "elevation": "331", "name": "VANDENBERG AFB SUDDEN RCH", "lat": "34.58333", "lng": "-120.63333", "types": ["WBAN"], "types_id": ["93221"]}, {"state": "CA", "elevation": "59", "name": "POINT ARGUELLO", "lat": "34.56667", "lng": "-120.66667", "types": ["WBAN", "WBAN", "FAA"], "types_id": ["23265", "23265", "PGU"]}, {"state": "CA", "elevation": "671", "name": "SANTA YNEZ AP", "lat": "34.60694", "lng": "-120.07556", "types": ["WBAN", "FAA", "ICAO"], "types_id": ["93244", "IZA", "KIZA"]}, {"state": "CA", "elevation": "89", "name": "LOMPOC AP", "lat": "34.66667", "lng": "-120.46667", "types": ["WBAN", "FAA", "ICAO"], "types_id": ["23243", "LPC", "KLPC"]}, {"state": "CA", "elevation": "381", "name": "VANDENBERG AFB", "lat": "34.71667", "lng": "-120.56667", "types": ["WBAN", "WBAN", "FAA", "WMO", "ICAO"], "types_id": ["93214", "93214", "VBG", "72393", "KVBG"]}, {"state": "CA", "elevation": "367", "name": "VANDENBERG BLDG 900", "lat": "34.71667", "lng": "-120.56667", "types": ["WBAN"], "types_id": ["93223"]}, {"state": "CA", "elevation": "2595", "name": "GOFFS", "lat": "34.83333", "lng": "-114.71667", "types": ["WBAN", "FAA"], "types_id": ["93159", "GFS"]}, {"state": "CA", "elevation": "2316", "name": "EDWARDS AFB", "lat": "34.90000", "lng": "-117.86667", "types": ["WBAN", "FAA", "WMO", "ICAO"], "types_id": ["23114", "EDW", "72381", "KEDW"]}, {"state": "CA", "elevation": "2283", "name": "MUROC FLIGHT BASE AAF", "lat": "34.98333", "lng": "-117.86667", "types": ["WBAN"], "types_id": ["23142"]}, {"state": "CA", "elevation": "2762", "name": "MOJAVE MCAS", "lat": "35.11667", "lng": "-118.15000", "types": ["WBAN"], "types_id": ["93108"]}, {"state": "CA", "elevation": "3993", "name": "TEHACHAPI", "lat": "35.13333", "lng": "-118.45000", "types": ["WBAN", "WBAN", "WBAN"], "types_id": ["93188", "93188", "93188"]}, {"state": "CA", "elevation": "3970", "name": "TEHACHAPI AAF", "lat": "35.13333", "lng": "-118.45000", "types": ["WBAN"], "types_id": ["23127"]}, {"state": "CA", "elevation": "436", "name": "GARDNER FLD", "lat": "35.11667", "lng": "-119.30000", "types": ["WBAN"], "types_id": ["23126"]}, {"state": "CA", "elevation": "876", "name": "TAFT", "lat": "35.16667", "lng": "-119.41667", "types": ["WBAN"], "types_id": ["93187"]}, {"state": "CA", "elevation": "922", "name": "BAKER TEAM 19", "lat": "35.26667", "lng": "-116.08333", "types": ["WBAN"], "types_id": ["03134"]}, {"state": "CA", "elevation": "2835", "name": "CUDDEBACK GUNNERY RANGE", "lat": "35.26667", "lng": "-117.43333", "types": ["WBAN", "FAA", "WMO"], "types_id": ["03147", "4CB", "74618"]}, {"state": "CA", "elevation": "2507", "name": "BARSTOW CAMP IRWIN", "lat": "35.30000", "lng": "-116.65000", "types": ["WBAN"], "types_id": ["23148"]}, {"state": "CA", "elevation": "0", "name": "SUPERIOR VALLEY AGGR", "lat": "35.33333", "lng": "-117.10000", "types": ["WBAN", "WMO"], "types_id": ["03176", "74619"]}, {"state": "CA", "elevation": "66", "name": "CAMP MORRO BAY AAF", "lat": "35.36667", "lng": "-120.08333", "types": ["WBAN"], "types_id": ["23223"]}, {"state": "CA", "elevation": "994", "name": "SANTA MARGARITA", "lat": "35.40000", "lng": "-120.60000", "types": ["WBAN"], "types_id": ["23295"]}, {"state": "CA", "elevation": "30", "name": "ESTERO", "lat": "35.43333", "lng": "-120.86667", "types": ["WBAN", "FAA"], "types_id": ["23282", "PPD"]}, {"state": "CA", "elevation": "4800", "name": "MTN PASS", "lat": "35.46667", "lng": "-115.56667", "types": ["WBAN"], "types_id": ["93179"]}, {"state": "CA", "elevation": "427", "name": "MINTER AAF", "lat": "35.50000", "lng": "-119.18333", "types": ["WBAN"], "types_id": ["23102"]}, {"state": "CA", "elevation": "98", "name": "HARMONY FLD AAF", "lat": "35.56667", "lng": "-121.11667", "types": ["WBAN"], "types_id": ["23216"]}, {"state": "CA", "elevation": "814", "name": "SHERWOOD AFB", "lat": "35.60000", "lng": "-120.65000", "types": ["WBAN"], "types_id": ["23222"]}, {"state": "CA", "elevation": "709", "name": "LOST HILLS", "lat": "35.66667", "lng": "-119.85000", "types": ["WBAN"], "types_id": ["93173"]}, {"state": "CA", "elevation": "2234", "name": "CHINA LAKE G1 RANGE", "lat": "35.78333", "lng": "-117.78333", "types": ["WBAN"], "types_id": ["03120"]}, {"state": "CA", "elevation": "1581", "name": "SHOSHONE TEAM 5", "lat": "35.96667", "lng": "-116.26667", "types": ["WBAN"], "types_id": ["03138"]}, {"state": "CA", "elevation": "3222", "name": "SHOSHONE", "lat": "35.96667", "lng": "-116.28333", "types": ["WBAN"], "types_id": ["03142"]}, {"state": "CA", "elevation": "433", "name": "PORTERVILLE AAF", "lat": "36.03333", "lng": "-119.06667", "types": ["WBAN", "FAA"], "types_id": ["23149", "PTV"]}, {"state": "CA", "elevation": "1040", "name": "JOLON FT HUNTER LIGGETT", "lat": "36.00000", "lng": "-121.23333", "types": ["WBAN", "FAA", "ICAO"], "types_id": ["93218", "HGT", "KHGT"]}, {"state": "CA", "elevation": "676", "name": "COALINGA", "lat": "36.13333", "lng": "-120.36667", "types": ["WBAN"], "types_id": ["23253"]}, {"state": "CA", "elevation": "384", "name": "KING CITY PALO ALTO AP", "lat": "36.21667", "lng": "-121.13333", "types": ["WBAN"], "types_id": ["23284"]}, {"state": "CA", "elevation": "322", "name": "POINT SUR LT STN", "lat": "36.30000", "lng": "-121.90000", "types": ["WBAN", "WBAN"], "types_id": ["23269", "23269"]}, {"state": "CA", "elevation": "-220", "name": "FURNACE CREEK", "lat": "36.46667", "lng": "-116.88333", "types": ["WBAN"], "types_id": ["03126"]}, {"state": "CA", "elevation": "164", "name": "MONTEREY NAF", "lat": "36.60000", "lng": "-121.86667", "types": ["WBAN", "WBAN", "FAA", "WMO"], "types_id": ["23245", "23245", "NSU", "72491"]}, {"state": "CA", "elevation": "174", "name": "MENDOTA", "lat": "36.66667", "lng": "-120.28333", "types": ["WBAN"], "types_id": ["23288"]}, {"state": "CA", "elevation": "72", "name": "SALINAS AAB", "lat": "36.66667", "lng": "-121.61667", "types": ["WBAN"], "types_id": ["23207"]}, {"state": "CA", "elevation": "374", "name": "HOLLISTER", "lat": "36.88333", "lng": "-121.40000", "types": ["WBAN", "FAA"], "types_id": ["93204", "HLL"]}, {"state": "CA", "elevation": "236", "name": "HOLLISTER NAAS", "lat": "36.88333", "lng": "-121.40000", "types": ["WBAN"], "types_id": ["23241"]}, {"state": "CA", "elevation": "200", "name": "GILROY", "lat": "37.01667", "lng": "-121.60000", "types": ["WBAN", "FAA"], "types_id": ["23283", "GRY"]}, {"state": "CA", "elevation": "98", "name": "LOS BANOS", "lat": "37.10000", "lng": "-120.85000", "types": ["WBAN"], "types_id": ["23287"]}, {"state": "CA", "elevation": "791", "name": "COYOTE PASS", "lat": "37.23333", "lng": "-121.66667", "types": ["WBAN"], "types_id": ["93224"]}, {"state": "CA", "elevation": "200", "name": "LIVINGSTON", "lat": "37.33333", "lng": "-120.71667", "types": ["WBAN"], "types_id": ["23286"]}, {"state": "CA", "elevation": "4121", "name": "BISHOP AAF", "lat": "37.35000", "lng": "-118.40000", "types": ["WBAN"], "types_id": ["23138"]}, {"state": "CA", "elevation": "197", "name": "CASTLE AFB", "lat": "37.38333", "lng": "-120.56667", "types": ["WBAN", "FAA", "WMO", "ICAO"], "types_id": ["23203", "MER", "72481", "KMER"]}, {"state": "CA", "elevation": "157", "name": "ATWATER", "lat": "37.35000", "lng": "-120.60000", "types": ["WBAN"], "types_id": ["23278"]}, {"state": "CA", "elevation": "289", "name": "VISALIA MUNIAP", "lat": "36.31667", "lng": "-119.40000", "types": ["WBAN", "FAA", "ICAO"], "types_id": ["93144", "VIS", "KVIS"]}, {"state": "CA", "elevation": "30", "name": "SUNNYVALE NAS", "lat": "37.35000", "lng": "-122.05000", "types": ["WBAN", "WBAN"], "types_id": ["23298", "93207"]}, {"state": "CA", "elevation": "240", "name": "LEMOORE REEVES NAS", "lat": "36.33333", "lng": "-119.95000", "types": ["WBAN", "FAA", "WMO", "ICAO"], "types_id": ["23110", "NLC", "74702", "KNLC"]}, {"state": "CA", "elevation": "253", "name": "LEMOORE AAF", "lat": "36.25000", "lng": "-119.95000", "types": ["WBAN", "FAA"], "types_id": ["23110", "NLC"]}, {"state": "CA", "elevation": "30", "name": "LOS ALAMITOS", "lat": "33.80000", "lng": "-118.11667", "types": ["WBAN"], "types_id": ["93106"]}, {"state": "CA", "elevation": "36", "name": "LOS ALAMITOS", "lat": "33.78333", "lng": "-118.05000", "types": ["WBAN", "FAA"], "types_id": ["93106", "NTB"]}, {"state": "CA", "elevation": "463", "name": "POINT AU NUEVO AAF", "lat": "37.35000", "lng": "-122.36667", "types": ["WBAN"], "types_id": ["23215"]}, {"state": "CA", "elevation": "164", "name": "CROWS LANDING", "lat": "37.40000", "lng": "-121.13333", "types": ["WBAN", "WBAN", "FAA", "FAA", "ICAO"], "types_id": ["23240", "23240", "NRC", "NRC", "KNRC"]}, {"state": "CA", "elevation": "3950", "name": "INDEPENDENCE", "lat": "36.79806", "lng": "-118.20361", "types": ["WBAN", "NWS COOP", "NWS COOP", "NWSLI"], "types_id": ["93164", "044232", "044232", "INDC1"]}, {"state": "CA", "elevation": "-66", "name": "INDIO COACHELLA", "lat": "33.68333", "lng": "-116.16667", "types": ["WBAN", "NWS COOP"], "types_id": ["23172", "041860"]}, {"state": "CA", "elevation": "2162", "name": "BARSTOW", "lat": "34.90000", "lng": "-117.03333", "types": ["WBAN", "NWS COOP", "NWS COOP"], "types_id": ["93151", "040519", "040519"]}, {"state": "CA", "elevation": "922", "name": "SILVER LAKE CAA AP", "lat": "35.33333", "lng": "-116.08333", "types": ["WBAN", "WBAN", "NWS COOP", "NWS COOP"], "types_id": ["23192", "23192", "048250", "048250"]}, {"state": "CA", "elevation": "74", "name": "SALINAS MUNI AP", "lat": "36.66361", "lng": "-121.60806", "types": ["WBAN", "WBAN", "WBAN", "NWS COOP", "NWS COOP", "NWS COOP", "FAA", "ICAO", "NWSLI"], "types_id": ["23233", "23233", "23233", "047669", "047669", "047669", "SNS", "KSNS", "SNS"]}, {"state": "CA", "elevation": "26", "name": "SUNNYVALE NAS", "lat": "37.41667", "lng": "-122.05000", "types": ["WBAN"], "types_id": ["23251"]}, {"state": "CA", "elevation": "3", "name": "PALO ALTO", "lat": "37.46667", "lng": "-122.11667", "types": ["WBAN", "WBAN", "FAA", "ICAO"], "types_id": ["23289", "23289", "PAO", "KPAO"]}, {"state": "CA", "elevation": "3", "name": "SAN CARLOS AP", "lat": "37.51667", "lng": "-122.25000", "types": ["WBAN", "FAA", "ICAO"], "types_id": ["93231", "SQL", "KASL"]}, {"state": "CA", "elevation": "39", "name": "POINT MONTARA", "lat": "37.53333", "lng": "-122.51667", "types": ["WBAN"], "types_id": ["23266"]}, {"state": "CA", "elevation": "194", "name": "VERNALIS NAAS", "lat": "37.60000", "lng": "-121.30000", "types": ["WBAN", "FAA"], "types_id": ["23248", "VNL"]}, {"state": "CA", "elevation": "646", "name": "LIVERMORE NAS", "lat": "37.68333", "lng": "-121.70000", "types": ["WBAN"], "types_id": ["23242"]}, {"state": "CA", "elevation": "7", "name": "OAKLAND NAS", "lat": "37.73333", "lng": "-122.20000", "types": ["WBAN", "FAA"], "types_id": ["93211", "NBJ"]}, {"state": "CA", "elevation": "30", "name": "FARALLON ISLAND NAS", "lat": "37.70000", "lng": "-123.00000", "types": ["WBAN", "FAA"], "types_id": ["23250", "FLI"]}, {"state": "CA", "elevation": "66", "name": "TRACY", "lat": "37.76667", "lng": "-121.53333", "types": ["WBAN"], "types_id": ["23299"]}, {"state": "CA", "elevation": "16", "name": "ALAMEDA NAS", "lat": "37.73333", "lng": "-122.31667", "types": ["WBAN", "FAA", "WMO", "ICAO"], "types_id": ["23239", "NGZ", "74506", "KNGZ"]}, {"state": "CA", "elevation": "16", "name": "SAN FRANCISCO", "lat": "37.78333", "lng": "-122.31667", "types": ["WBAN"], "types_id": ["23292"]}, {"state": "CA", "elevation": "16", "name": "OAKLAND AAF", "lat": "37.80000", "lng": "-122.35000", "types": ["WBAN"], "types_id": ["23205"]}, {"state": "CA", "elevation": "20", "name": "CRISSY FLD ASC", "lat": "37.80000", "lng": "-122.46667", "types": ["WBAN", "WBAN", "FAA"], "types_id": ["23151", "23151", "CSY"]}, {"state": "CA", "elevation": "26", "name": "STOCKTON FLD", "lat": "37.90000", "lng": "-121.23333", "types": ["WBAN"], "types_id": ["23214"]}, {"state": "CA", "elevation": "2375", "name": "MT TAMALPAIS", "lat": "37.93333", "lng": "-122.58333", "types": ["WBAN"], "types_id": ["23262"]}, {"state": "CA", "elevation": "259", "name": "SAN PABLO", "lat": "37.98333", "lng": "-122.35000", "types": ["WBAN"], "types_id": ["23294"]}, {"state": "CA", "elevation": "6449", "name": "MONO LAKE", "lat": "38.00000", "lng": "-119.15000", "types": ["WBAN", "NWS COOP", "NWS COOP"], "types_id": ["93177", "045779", "045779"]}, {"state": "CA", "elevation": "46", "name": "VALLEJO", "lat": "38.00000", "lng": "-122.33333", "types": ["WBAN"], "types_id": ["23217"]}, {"state": "CA", "elevation": "3", "name": "SAN RAFAEL HAMILTON AFB", "lat": "38.05000", "lng": "-122.50000", "types": ["WBAN"], "types_id": ["93213"]}, {"state": "CA", "elevation": "413", "name": "POTRERO HILLS", "lat": "38.20000", "lng": "-121.96667", "types": ["WBAN"], "types_id": ["23291"]}, {"state": "CA", "elevation": "33", "name": "VALLEJO NAPA", "lat": "38.21667", "lng": "-122.28333", "types": ["WBAN"], "types_id": ["23276"]}, {"state": "CA", "elevation": "138", "name": "SANTA ROSA NAAS", "lat": "38.41667", "lng": "-122.75000", "types": ["WBAN", "WBAN"], "types_id": ["23246", "23246"]}, {"state": "CA", "elevation": "236", "name": "JENNER AAB", "lat": "38.45000", "lng": "-123.13333", "types": ["WBAN"], "types_id": ["23209"]}, {"state": "CA", "elevation": "15", "name": "SACRAMENTO EXECUTIVE AP", "lat": "38.50694", "lng": "-121.49500", "types": ["WBAN", "WBAN", "NWS COOP", "FAA", "WMO", "ICAO", "NWSLI"], "types_id": ["23232", "23232", "047630", "SAC", "72483", "KSAC", "SAC"]}, {"state": "CA", "elevation": "135", "name": "WINTERS", "lat": "38.52278", "lng": "-121.96833", "types": ["WBAN", "NWS COOP", "NWS COOP", "NWSLI"], "types_id": ["93202", "049742", "049742", "WINC1"]}, {"state": "CA", "elevation": "0", "name": "MONTE RIO", "lat": "38.50000", "lng": "-123.00000", "types": ["WBAN"], "types_id": ["23220"]}, {"state": "CA", "elevation": "38", "name": "SACRAMENTO WSO CITY", "lat": "38.55556", "lng": "-121.41694", "types": ["WBAN", "WBAN", "NWS COOP", "NWS COOP", "NWSLI"], "types_id": ["23271", "23271", "047633", "047633", "SMTC1"]}, {"state": "CA", "elevation": "82", "name": "SACRAMENTO MCCLELLAN AFB", "lat": "38.66667", "lng": "-121.40000", "types": ["WBAN", "FAA", "ICAO"], "types_id": ["23208", "MCC", "KMCC"]}, {"state": "CA", "elevation": "66", "name": "POINT ARENA", "lat": "38.95000", "lng": "-123.73333", "types": ["WBAN", "FAA"], "types_id": ["23264", "PAA"]}, {"state": "CA", "elevation": "125", "name": "BEALE AFB", "lat": "39.13333", "lng": "-121.43333", "types": ["WBAN", "NWS COOP", "FAA", "ICAO", "NWSLI"], "types_id": ["93216", "040584", "BAB", "KBAB", "BAB"]}, {"state": "CA", "elevation": "62", "name": "MARYSVILLE YUBA CO AP", "lat": "39.09778", "lng": "-121.56972", "types": ["WBAN", "WBAN", "NWS COOP", "FAA", "ICAO"], "types_id": ["93205", "93205", "045388", "MYV", "KMYV"]}, {"state": "CA", "elevation": "66", "name": "MARYSVILLE AAF", "lat": "39.10000", "lng": "-121.56667", "types": ["WBAN"], "types_id": ["23212"]}, {"state": "CA", "elevation": "571", "name": "FT BRAGG", "lat": "39.26667", "lng": "-123.75000", "types": ["WBAN"], "types_id": ["23255"]}, {"state": "CA", "elevation": "6001", "name": "TRUCKEE", "lat": "39.33333", "lng": "-120.18333", "types": ["WBAN"], "types_id": ["93212"]}, {"state": "CA", "elevation": "5827", "name": "TRUCKEE AP", "lat": "39.36667", "lng": "-120.15000", "types": ["WBAN", "FAA"], "types_id": ["93201", "4TA"]}, {"state": "CA", "elevation": "751", "name": "FT BRAGG", "lat": "39.46667", "lng": "-123.75000", "types": ["WBAN"], "types_id": ["23210"]}, {"state": "CA", "elevation": "5000", "name": "SATTLEY", "lat": "39.46667", "lng": "-120.41667", "types": ["WBAN"], "types_id": ["23297"]}, {"state": "CA", "elevation": "253", "name": "CHICO AAF", "lat": "39.80000", "lng": "-121.85000", "types": ["WBAN", "FAA"], "types_id": ["23201", "CIC"]}, {"state": "CA", "elevation": "285", "name": "CORNING", "lat": "39.93333", "lng": "-122.16667", "types": ["WBAN"], "types_id": ["23280"]}, {"state": "CA", "elevation": "5072", "name": "WESTWOOD", "lat": "40.30000", "lng": "-121.00000", "types": ["WBAN", "NWS COOP", "NWS COOP"], "types_id": ["24265", "049599", "049599"]}, {"state": "CA", "elevation": "354", "name": "FORTUNA", "lat": "40.56667", "lng": "-124.13333", "types": ["WBAN"], "types_id": ["24256"]}, {"state": "CA", "elevation": "1201", "name": "DELTA", "lat": "40.95000", "lng": "-122.43333", "types": ["WBAN"], "types_id": ["24261"]}, {"state": "CA", "elevation": "2733", "name": "FT JONES", "lat": "41.53333", "lng": "-122.86667", "types": ["WBAN", "FAA"], "types_id": ["24170", "FJS"]}, {"state": "CA", "elevation": "2764", "name": "MOJAVE MCAS", "lat": "35.05000", "lng": "-118.16667", "types": ["WBAN"], "types_id": ["03129"]}, {"state": "CA", "elevation": "1778", "name": "CONDOR FLD AAF", "lat": "34.13333", "lng": "-116.03333", "types": ["WBAN"], "types_id": ["23134"]}, {"state": "CA", "elevation": "483", "name": "LOS ANGELES AAF", "lat": "34.06667", "lng": "-118.43333", "types": ["WBAN"], "types_id": ["23124"]}, {"state": "CA", "elevation": "236", "name": "RED BLUFF", "lat": "40.17861", "lng": "-122.22972", "types": ["WBAN", "NWS COOP", "NWS COOP", "NWSLI"], "types_id": ["24216", "047290", "047291", "RBLC1"]}, {"state": "CA", "elevation": "353", "name": "RED BLUFF MUNI AP", "lat": "40.15194", "lng": "-122.25361", "types": ["WBAN", "WBAN", "NWS COOP", "FAA", "WMO", "WMO", "ICAO", "NWSLI"], "types_id": ["24216", "24216", "047292", "RBL", "72591", "72591", "KRBL", "RBL"]}, {"state": "CA", "elevation": "568", "name": "SAN NICOLAS ISLAND", "lat": "33.25000", "lng": "-119.45000", "types": ["WBAN", "NWS COOP", "FAA", "WMO", "ICAO", "NWSLI"], "types_id": ["93116", "047870", "NSI", "72291", "KNSI", "NSI"]}, {"state": "CA", "elevation": "110", "name": "TORRANCE AP", "lat": "33.80167", "lng": "-118.34111", "types": ["WBAN", "NWS COOP", "FAA", "ICAO", "NWSLI"], "types_id": ["03122", "048973", "TOA", "KTOA", "TOA"]}, {"state": "CA", "elevation": "171", "name": "LOS ANGELES DWTN USC CAMPUS", "lat": "34.02167", "lng": "-118.29139", "types": ["WBAN", "NWS COOP", "FAA", "ICAO", "NWSLI", "NWSLI"], "types_id": ["93134", "045115", "CQT", "KCQT", "LCCC1", "CQT"]}, {"state": "CA", "elevation": "51", "name": "SAN JOSE", "lat": "37.35917", "lng": "-121.92389", "types": ["WBAN", "NWS COOP", "ICAO", "NWSLI", "NWSLI"], "types_id": ["23293", "047821", "KSJC", "SJOC1", "SJC"]}, {"state": "CA", "elevation": "51", "name": "SAN JOSE INTL AP", "lat": "37.35917", "lng": "-121.92417", "types": ["WBAN", "WBAN", "NWS COOP", "FAA", "ICAO", "NWSLI"], "types_id": ["23293", "23293", "047824", "SJC", "KSJC", "SJC"]}, {"state": "CA", "elevation": "105", "name": "FT MACARTHUR AFB", "lat": "33.80000", "lng": "-118.33333", "types": ["WBAN"], "types_id": ["03122"]}, {"state": "CA", "elevation": "951", "name": "MT TAMALPAIS", "lat": "37.90000", "lng": "-122.58333", "types": ["WBAN", "WBAN"], "types_id": ["23263", "23263"]}]}
