{"stations": [{"elevation": "1720.0", "name": "MCKINLEY NP AP", "sids": ["26489", "46403", "506089", "5MK", "INR", "PAIN", "USC00506089"], "lon": "-148.91667", "state": "AK", "lat": "63.73333", "uid": "1"}, {"elevation": "5.0", "name": "THETIS ISLAND HELIPAD", "sids": [], "lon": "-150.15", "state": "AK", "lat": "66.55", "uid": "127"}, {"elevation": "37.0", "name": "POINT BARROW OBSY", "sids": ["27514"], "lon": "-156.6", "state": "AK", "lat": "71.31667", "uid": "409"}, {"elevation": "60.0", "name": "BIG RIVER LAKES", "sids": ["26557", "500788", "LVR", "5BI", "PALV", "USC00500788", "5BI"], "lon": "-152.29694", "state": "AK", "lat": "60.81417", "uid": "450"}, {"elevation": "15.0", "name": "BIG RIVER", "sids": ["BRI"], "lon": "-159.71667", "state": "AK", "lat": "55.85", "uid": "451"}, {"elevation": "236.0", "name": "AMCHITKA ISLAND", "sids": ["45702", "USW00045702"], "lon": "179.25", "state": "AK", "lat": "51.38333", "uid": "20416"}, {"elevation": "79.0", "name": "AMCHITKA ISLAND NS", "sids": ["45711"], "lon": "179.26667", "state": "AK", "lat": "51.4", "uid": "20417"}, {"elevation": "223.0", "name": "AMCHITKA", "sids": ["500252", "AHT", "USC00500252"], "lon": "179.28333", "state": "AK", "lat": "51.38333", "uid": "20418"}, {"elevation": "13.0", "name": "ADAK AAF", "sids": ["25707"], "lon": "-176.65", "state": "AK", "lat": "51.88333", "uid": "20419"}, {"elevation": "49.0", "name": "OGLIUGA AAF", "sids": ["25702"], "lon": "-178.8", "state": "AK", "lat": "51.55", "uid": "20420"}, {"elevation": "16.0", "name": "ADAK CG", "sids": [], "lon": "-177.0", "state": "AK", "lat": "51.58333", "uid": "20421"}, {"elevation": "1007.0", "name": "BIRD CAPE AAF", "sids": ["45705"], "lon": "178.66667", "state": "AK", "lat": "51.65", "uid": "20422"}, {"elevation": "49.0", "name": "KANAGA BAY NS", "sids": ["25717"], "lon": "-177.25", "state": "AK", "lat": "51.76667", "uid": "20423"}, {"elevation": "144.0", "name": "TANAGA ISLAND NS", "sids": ["25714", "TGA"], "lon": "-178.03333", "state": "AK", "lat": "51.75", "uid": "20424"}, {"elevation": "148.0", "name": "ASI TANAGA ISLAND NS", "sids": ["25709", "USW00025709"], "lon": "-178.03333", "state": "AK", "lat": "51.75", "uid": "20425"}, {"elevation": "16.0", "name": "ADAK DAVIS AFB", "sids": ["25701"], "lon": "-176.65", "state": "AK", "lat": "51.88333", "uid": "20426"}, {"elevation": "17.0", "name": "ADAK AP", "sids": ["25704", "500026", "ADK", "70454", "PADK", "USW00025704"], "lon": "-176.65", "state": "AK", "lat": "51.88333", "uid": "20427"}, {"elevation": "98.0", "name": "SEMISOPOCHNOI", "sids": ["45707"], "lon": "179.58333", "state": "AK", "lat": "51.91667", "uid": "20428"}, {"elevation": "299.0", "name": "KISKA ISLAND AAF", "sids": ["45703"], "lon": "177.56667", "state": "AK", "lat": "51.98333", "uid": "20429"}, {"elevation": "72.0", "name": "KISKA ISLAND NAAF", "sids": ["45710"], "lon": "177.53333", "state": "AK", "lat": "51.96667", "uid": "20430"}, {"elevation": "56.0", "name": "ATKA AP", "sids": ["25715", "500433", "AKA", "PAAK", "USC00500433"], "lon": "-174.20611", "state": "AK", "lat": "52.22028", "uid": "20431"}, {"elevation": "36.0", "name": "ATKA ISLAND", "sids": ["25708", "AKA", "PAAK", "USW00025708"], "lon": "-174.2", "state": "AK", "lat": "52.21667", "uid": "20432"}, {"elevation": "26.0", "name": "ATKA NS", "sids": ["25710"], "lon": "-174.21667", "state": "AK", "lat": "52.23333", "uid": "20433"}, {"elevation": "62.0", "name": "SEGUAM AAF", "sids": ["25703"], "lon": "-172.41667", "state": "AK", "lat": "52.38333", "uid": "20434"}, {"elevation": "49.0", "name": "BULDIR ISLAND AAF", "sids": ["45706"], "lon": "175.96667", "state": "AK", "lat": "52.4", "uid": "20435"}, {"elevation": "16.0", "name": "AGATTU ISLAND NS", "sids": [], "lon": "-173.56667", "state": "AK", "lat": "52.43333", "uid": "20436"}, {"elevation": "122.0", "name": "SHEMYA AFB", "sids": ["45715", "508419", "SYA", "70414", "PASY", "USW00045715"], "lon": "174.1", "state": "AK", "lat": "52.71667", "uid": "20437"}, {"elevation": "79.0", "name": "CHUGINADAK", "sids": ["25601"], "lon": "-169.83333", "state": "AK", "lat": "52.83333", "uid": "20438"}, {"elevation": "92.0", "name": "ATTU NS", "sids": ["45709", "USW00045709"], "lon": "173.16667", "state": "AK", "lat": "52.8", "uid": "20439"}, {"elevation": "69.0", "name": "ATTU", "sids": ["45712", "70409"], "lon": "173.18333", "state": "AK", "lat": "52.83333", "uid": "20440"}, {"elevation": "70.0", "name": "ATTU", "sids": ["500452", "ATU", "70409", "PAAT", "USC00500452"], "lon": "173.18333", "state": "AK", "lat": "52.83333", "uid": "20441"}, {"elevation": "26.0", "name": "ALEXAI POINT AFS", "sids": ["45701"], "lon": "173.31667", "state": "AK", "lat": "52.83333", "uid": "20442"}, {"elevation": "49.0", "name": "CAPE WRANGELL NF", "sids": ["45713"], "lon": "172.51667", "state": "AK", "lat": "52.88333", "uid": "20443"}, {"elevation": "705.0", "name": "NIKOLSKI", "sids": ["25626", "IKO", "KIKO", "USW00025626"], "lon": "-168.78333", "state": "AK", "lat": "52.91667", "uid": "20444"}, {"elevation": "315.0", "name": "NIKOLSKI AAF", "sids": ["25605", "IKO"], "lon": "-168.96667", "state": "AK", "lat": "52.91667", "uid": "20445"}, {"elevation": "46.0", "name": "HOLTZ BAY AAF", "sids": ["45704"], "lon": "173.16667", "state": "AK", "lat": "52.91667", "uid": "20446"}, {"elevation": "23.0", "name": "NIKOLSKI", "sids": [], "lon": "-168.86667", "state": "AK", "lat": "52.95", "uid": "20447"}, {"elevation": "30.0", "name": "CHERNOFSKI HARBOR", "sids": ["501601", "USC00501601"], "lon": "-167.35", "state": "AK", "lat": "53.43333", "uid": "20448"}, {"elevation": "66.0", "name": "UMNAK ISLAND AAF", "sids": ["25610"], "lon": "-167.78333", "state": "AK", "lat": "53.53333", "uid": "20449"}, {"elevation": "75.0", "name": "REINDEER PASS AAF", "sids": ["25606"], "lon": "-167.91667", "state": "AK", "lat": "53.51667", "uid": "20450"}, {"elevation": "30.0", "name": "DUTCH HARBOR NF", "sids": ["25611"], "lon": "-166.53333", "state": "AK", "lat": "53.88333", "uid": "20451"}, {"elevation": "712.0", "name": "UNALGA ISLAND NF", "sids": ["25608"], "lon": "-166.16667", "state": "AK", "lat": "53.96667", "uid": "20452"}, {"elevation": "1299.0", "name": "DRIFTWOOD BAY", "sids": ["25515", "DFB", "KDFB", "USW00025515"], "lon": "-166.85", "state": "AK", "lat": "53.96667", "uid": "20453"}, {"elevation": "141.0", "name": "CATON ISLAND NS", "sids": ["25612"], "lon": "-162.46667", "state": "AK", "lat": "54.41667", "uid": "20454"}, {"elevation": "131.0", "name": "CATON ISLAND NF", "sids": ["25615"], "lon": "-162.46667", "state": "AK", "lat": "54.41667", "uid": "20455"}, {"elevation": "20.0", "name": "SCOTCH CAPE LT STN", "sids": ["25618", "508273", "USC00508273"], "lon": "-164.75", "state": "AK", "lat": "54.41667", "uid": "20456"}, {"elevation": "2680.0", "name": "PAULOFF HARBOR", "sids": ["25627"], "lon": "-162.7", "state": "AK", "lat": "54.46667", "uid": "20457"}, {"elevation": "177.0", "name": "CAPE SARICHEF", "sids": ["25622", "501325", "CSH", "USC00501325"], "lon": "-164.93333", "state": "AK", "lat": "54.6", "uid": "20458"}, {"elevation": "36.0", "name": "TREE POINT LT STN", "sids": ["25337", "509399", "TRP", "USC00509399"], "lon": "-130.93333", "state": "AK", "lat": "54.8", "uid": "20459"}, {"elevation": "1211.0", "name": "FOREST ISLAND", "sids": [], "lon": "-133.53333", "state": "AK", "lat": "54.8", "uid": "20460"}, {"elevation": "115.0", "name": "ANNETTE ISLAND AAF", "sids": ["25301"], "lon": "-131.58333", "state": "AK", "lat": "55.03333", "uid": "20461"}, {"elevation": "109.0", "name": "ANNETTE ISLAND AP", "sids": ["25308", "500352", "ANN", "70398", "PANT", "USW00025308"], "lon": "-131.57861", "state": "AK", "lat": "55.03889", "uid": "20462"}, {"elevation": "10.0", "name": "VIEW COVE", "sids": ["25368", "509702", "USC00509702"], "lon": "-133.06667", "state": "AK", "lat": "55.06667", "uid": "20463"}, {"elevation": "39.0", "name": "MARY ISLAND", "sids": [], "lon": "-131.18333", "state": "AK", "lat": "55.1", "uid": "20464"}, {"elevation": "39.0", "name": "GRAVINA", "sids": [], "lon": "-131.81667", "state": "AK", "lat": "55.18333", "uid": "20465"}, {"elevation": "26.0", "name": "HYDABURG", "sids": ["503812", "USC00503812"], "lon": "-132.81667", "state": "AK", "lat": "55.2", "uid": "20466"}, {"elevation": "98.0", "name": "THORNBROUGH AFB", "sids": ["25603", "509153", "USW00025603"], "lon": "-162.71667", "state": "AK", "lat": "55.2", "uid": "20467"}, {"elevation": "78.0", "name": "COLD BAY AP", "sids": ["25624", "502102", "CDB", "70316", "PACD", "USW00025624"], "lon": "-162.7325", "state": "AK", "lat": "55.22083", "uid": "20468"}, {"elevation": "26.0", "name": "WOSNESSENSKI", "sids": [], "lon": "-161.35", "state": "AK", "lat": "55.21667", "uid": "20469"}, {"elevation": "200.0", "name": "SQUAW HARBOR", "sids": [], "lon": "-160.55", "state": "AK", "lat": "55.25", "uid": "20470"}, {"elevation": "20.0", "name": "SMEATON BAY", "sids": ["508558", "USC00508558"], "lon": "-130.78333", "state": "AK", "lat": "55.31667", "uid": "20471"}, {"elevation": "22.0", "name": "SAND POINT AP", "sids": ["25617", "508183", "SDP", "PASD", "USC00508183"], "lon": "-160.52083", "state": "AK", "lat": "55.31944", "uid": "20472"}, {"elevation": "35.0", "name": "BEAVER FALLS", "sids": ["25313", "500657", "USC00500657", "KTNA2"], "lon": "-131.46833", "state": "AK", "lat": "55.38", "uid": "20473"}, {"elevation": "46.0", "name": "KETCHIKAN COAST GRD", "sids": [], "lon": "-131.7", "state": "AK", "lat": "55.35", "uid": "20474"}, {"elevation": "330.0", "name": "KETCHIKAN CARLANNA C", "sids": ["504600", "USC00504600", "KCKA2"], "lon": "-131.7", "state": "AK", "lat": "55.35", "uid": "20475"}, {"elevation": "16.0", "name": "AMAK ISLAND AF", "sids": ["25609"], "lon": "-163.13333", "state": "AK", "lat": "55.4", "uid": "20476"}, {"elevation": "20.0", "name": "GUARD ISLAND LIGHT STN", "sids": ["25320", "503454", "GIA", "USC00503454"], "lon": "-131.88333", "state": "AK", "lat": "55.45", "uid": "20477"}, {"elevation": "40.0", "name": "HOLLIS", "sids": ["503650", "HLS", "PAHS", "USC00503650", "KLWA2"], "lon": "-132.65", "state": "AK", "lat": "55.48222", "uid": "20478"}, {"elevation": "43.0", "name": "CRAIG", "sids": ["25317", "502227", "CGA", "USC00502227", "CFSA2"], "lon": "-133.14083", "state": "AK", "lat": "55.47722", "uid": "20479"}, {"elevation": "30.0", "name": "KASAAN", "sids": ["504342", "USC00504342"], "lon": "-132.4", "state": "AK", "lat": "55.53333", "uid": "20480"}, {"elevation": "10.0", "name": "KLAWOCK TEMSCO AIRLINE", "sids": ["9Z1"], "lon": "-133.1", "state": "AK", "lat": "55.55", "uid": "20481"}, {"elevation": "131.0", "name": "FORTMANN HATCHERY", "sids": ["503125", "USC00503125"], "lon": "-131.41667", "state": "AK", "lat": "55.6", "uid": "20482"}, {"elevation": "20.0", "name": "TRAITORS COVE", "sids": ["509394"], "lon": "-131.63333", "state": "AK", "lat": "55.7", "uid": "20483"}, {"elevation": "144.0", "name": "CHIRIKOF NS", "sids": ["25505", "CKS"], "lon": "-155.58333", "state": "AK", "lat": "55.91667", "uid": "20484"}, {"elevation": "10.0", "name": "BELL ISLAND", "sids": ["25314", "500676", "KBE", "KKBE", "USC00500676"], "lon": "-131.58333", "state": "AK", "lat": "55.91667", "uid": "20486"}, {"elevation": "26.0", "name": "CHIRIKOF ISLAND", "sids": ["25511"], "lon": "-155.56667", "state": "AK", "lat": "55.9", "uid": "20487"}, {"elevation": "49.0", "name": "CAPE POLE", "sids": ["25362", "501316", "USC00501316"], "lon": "-133.8", "state": "AK", "lat": "55.96667", "uid": "20488"}, {"elevation": "10.0", "name": "COFFMAN COVE", "sids": ["502084", "USC00502084", "CFCA2"], "lon": "-132.83333", "state": "AK", "lat": "56.0", "uid": "20489"}, {"elevation": "49.0", "name": "CAPE DECISION", "sids": ["25315", "501269", "CDE", "USC00501269"], "lon": "-134.13333", "state": "AK", "lat": "56.0", "uid": "20490"}, {"elevation": "1053.0", "name": "PORT MOLLER", "sids": ["25625", "PML", "KPML", "USW00025625"], "lon": "-160.51667", "state": "AK", "lat": "56.0", "uid": "20491"}]}